{
  "type": "FeatureCollection",
  "features": [
    {
      "type": "Feature",
      "geometry": {
        "type": "Point",
        "coordinates": [
          11.381993,
          48.065565
        ]
      },
      "properties": {
        "id": "vollcorner_gauting",
        "chain_id": "vollcorner",
        "store_id": "gauting",
        "name": "VollCorner Biomarkt Gauting",
        "street": "Leutstettener Straße 2",
        "postal_code": "82131",
        "city": "Gauting",
        "country_code": "DE",
        "phone": "Tel.: 089 89559421",
        "email": null,
        "website": "https://www.vollcorner.de/standorte/biomaerkte/",
        "opening_hours": {
          "text": "Montag bis Samstag 8 - 19 Uhr"
        },
        "services": null,
        "address": "Leutstettener Straße 2, 82131 Gauting"
      }
    },
    {
      "type": "Feature",
      "geometry": {
        "type": "Point",
        "coordinates": [
          11.462819,
          48.191319
        ]
      },
      "properties": {
        "id": "vollcorner_allach",
        "chain_id": "vollcorner",
        "store_id": "allach",
        "name": "VollCorner Biomarkt Allach",
        "street": "Franz-Nißl-Str. 41",
        "postal_code": "80999",
        "city": "München",
        "country_code": "DE",
        "phone": "Tel.: 089 54316488",
        "email": null,
        "website": "https://www.vollcorner.de/standorte/biomaerkte/",
        "opening_hours": {
          "text": "Montag bis Samstag 8 - 20 Uhr"
        },
        "services": null,
        "address": "Franz-Nißl-Str. 41, 80999 München"
      }
    },
    {
      "type": "Feature",
      "geometry": {
        "type": "Point",
        "coordinates": [
          11.637709,
          48.146069
        ]
      },
      "properties": {
        "id": "vollcorner_bogenhausen",
        "chain_id": "vollcorner",
        "store_id": "bogenhausen",
        "name": "VollCorner Biomarkt Bogenhausen",
        "street": "Warthestraße 1",
        "postal_code": "81927",
        "city": "München",
        "country_code": "DE",
        "phone": "Tel.: 089 9304289",
        "email": null,
        "website": "https://www.vollcorner.de/standorte/biomaerkte/",
        "opening_hours": {
          "text": "Montag bis Samstag 8 - 20 Uhr"
        },
        "services": null,
        "address": "Warthestraße 1, 81927 München"
      }
    },
    {
      "type": "Feature",
      "geometry": {
        "type": "Point",
        "coordinates": [
          11.581551,
          48.116652
        ]
      },
      "properties": {
        "id": "vollcorner_giesing",
        "chain_id": "vollcorner",
        "store_id": "giesing",
        "name": "VollCorner Biomarkt Giesing",
        "street": "Tegernseer Landstraße 41",
        "postal_code": "81541",
        "city": "München",
        "country_code": "DE",
        "phone": "Tel.: 089 64167111",
        "email": null,
        "website": "https://www.vollcorner.de/standorte/biomaerkte/",
        "opening_hours": {
          "text": "Montag bis Samstag 8 - 20 Uhr"
        },
        "services": null,
        "address": "Tegernseer Landstraße 41, 81541 München"
      }
    },
    {
      "type": "Feature",
      "geometry": {
        "type": "Point",
        "coordinates": [
          11.477534,
          48.115314
        ]
      },
      "properties": {
        "id": "vollcorner_großhadern",
        "chain_id": "vollcorner",
        "store_id": "großhadern",
        "name": "VollCorner Biomarkt Großhadern",
        "street": "Würmtalstr. 95",
        "postal_code": "81375",
        "city": "München",
        "country_code": "DE",
        "phone": "Tel.: 089 71669888",
        "email": null,
        "website": "https://www.vollcorner.de/standorte/biomaerkte/",
        "opening_hours": {
          "text": "Montag bis Samstag 8 - 20 Uhr"
        },
        "services": null,
        "address": "Würmtalstr. 95, 81375 München"
      }
    },
    {
      "type": "Feature",
      "geometry": {
        "type": "Point",
        "coordinates": [
          11.594554,
          48.128688
        ]
      },
      "properties": {
        "id": "vollcorner_haidhausen",
        "chain_id": "vollcorner",
        "store_id": "haidhausen",
        "name": "VollCorner Biomarkt Haidhausen",
        "street": "Weißenburger Straße 5",
        "postal_code": "81667",
        "city": "München",
        "country_code": "DE",
        "phone": "Tel.: 089 37410864",
        "email": null,
        "website": "https://www.vollcorner.de/standorte/biomaerkte/",
        "opening_hours": {
          "text": "Montag bis Samstag 8- 20 Uhr"
        },
        "services": null,
        "address": "Weißenburger Straße 5, 81667 München"
      }
    },
    {
      "type": "Feature",
      "geometry": {
        "type": "Point",
        "coordinates": [
          11.5865945,
          48.1399769
        ]
      },
      "properties": {
        "id": "vollcorner_lehel",
        "chain_id": "vollcorner",
        "store_id": "lehel",
        "name": "VollCorner Biomarkt Lehel",
        "street": "Triftstraße 2",
        "postal_code": "80538",
        "city": "München",
        "country_code": "DE",
        "phone": null,
        "email": null,
        "website": "https://www.vollcorner.de/standorte/biomaerkte/",
        "opening_hours": {
          "text": "Eröffnung 2026"
        },
        "services": null,
        "address": "Triftstraße 2, 80538 München"
      }
    },
    {
      "type": "Feature",
      "geometry": {
        "type": "Point",
        "coordinates": [
          11.477952,
          48.086643
        ]
      },
      "properties": {
        "id": "vollcorner_maxhof",
        "chain_id": "vollcorner",
        "store_id": "maxhof",
        "name": "VollCorner Biomarkt Maxhof",
        "street": "Maxhofstraße 17",
        "postal_code": "81475",
        "city": "München",
        "country_code": "DE",
        "phone": "Tel.: 089 74500136",
        "email": null,
        "website": "https://www.vollcorner.de/standorte/biomaerkte/",
        "opening_hours": {
          "text": "Montag bis Samstag 8 - 20 Uhr"
        },
        "services": null,
        "address": "Maxhofstraße 17, 81475 München"
      }
    },
    {
      "type": "Feature",
      "geometry": {
        "type": "Point",
        "coordinates": [
          11.562851,
          48.149424
        ]
      },
      "properties": {
        "id": "vollcorner_maxvorstadt",
        "chain_id": "vollcorner",
        "store_id": "maxvorstadt",
        "name": "VollCorner Biomarkt Maxvorstadt",
        "street": "Augustenstraße 55",
        "postal_code": "80333",
        "city": "München",
        "country_code": "DE",
        "phone": "Tel.: 089 57877734",
        "email": null,
        "website": "https://www.vollcorner.de/standorte/biomaerkte/",
        "opening_hours": {
          "text": "Montag bis Samstag 8 - 20 Uhr"
        },
        "services": null,
        "address": "Augustenstraße 55, 80333 München"
      }
    },
    {
      "type": "Feature",
      "geometry": {
        "type": "Point",
        "coordinates": [
          11.54417,
          48.15939
        ]
      },
      "properties": {
        "id": "vollcorner_neuhausen",
        "chain_id": "vollcorner",
        "store_id": "neuhausen",
        "name": "VollCorner Biomarkt Neuhausen",
        "street": "Dom-Pedro-Straße 9b",
        "postal_code": "80637",
        "city": "München",
        "country_code": "DE",
        "phone": "Tel.: 089 12738480",
        "email": null,
        "website": "https://www.vollcorner.de/standorte/biomaerkte/",
        "opening_hours": {
          "text": "Montag bis Samstag 8 - 20 Uhr"
        },
        "services": null,
        "address": "Dom-Pedro-Straße 9b, 80637 München"
      }
    },
    {
      "type": "Feature",
      "geometry": {
        "type": "Point",
        "coordinates": [
          11.517944,
          48.166618
        ]
      },
      "properties": {
        "id": "vollcorner_nymphenburg-gern",
        "chain_id": "vollcorner",
        "store_id": "nymphenburg-gern",
        "name": "VollCorner Biomarkt Nymphenburg/Gern",
        "street": "Nederlinger Straße 72",
        "postal_code": "80638",
        "city": "München",
        "country_code": "DE",
        "phone": "Tel.: 089 15704553",
        "email": null,
        "website": "https://www.vollcorner.de/standorte/biomaerkte/",
        "opening_hours": {
          "text": "Montag bis Samstag 8 - 20 Uhr"
        },
        "services": null,
        "address": "Nederlinger Straße 72, 80638 München"
      }
    },
    {
      "type": "Feature",
      "geometry": {
        "type": "Point",
        "coordinates": [
          11.470122,
          48.1447613
        ]
      },
      "properties": {
        "id": "vollcorner_obermenzing-pasing",
        "chain_id": "vollcorner",
        "store_id": "obermenzing-pasing",
        "name": "VollCorner Biomarkt Obermenzing/Pasing",
        "street": "Kaspar-Kerll-Straße 47",
        "postal_code": "81245",
        "city": "München",
        "country_code": "DE",
        "phone": "Tel.: 089 37455226",
        "email": null,
        "website": "https://www.vollcorner.de/standorte/biomaerkte/",
        "opening_hours": {
          "text": "Montag bis Samstag 8 - 20 Uhr"
        },
        "services": null,
        "address": "Kaspar-Kerll-Straße 47, 81245 München"
      }
    },
    {
      "type": "Feature",
      "geometry": {
        "type": "Point",
        "coordinates": [
          11.4591772,
          48.1456927
        ]
      },
      "properties": {
        "id": "vollcorner_pasing",
        "chain_id": "vollcorner",
        "store_id": "pasing",
        "name": "VollCorner Biomarkt Pasing",
        "street": "Planegger Str. 9",
        "postal_code": "81241",
        "city": "München",
        "country_code": "DE",
        "phone": "Tel.: 089 82075794",
        "email": null,
        "website": "https://www.vollcorner.de/standorte/biomaerkte/",
        "opening_hours": {
          "text": "Montag bis Samstag 8 - 20 Uhr"
        },
        "services": null,
        "address": "Planegger Str. 9, 81241 München"
      }
    },
    {
      "type": "Feature",
      "geometry": {
        "type": "Point",
        "coordinates": [
          11.547517999999968,
          48.137442
        ]
      },
      "properties": {
        "id": "vollcorner_schwanthalerhöhe",
        "chain_id": "vollcorner",
        "store_id": "schwanthalerhöhe",
        "name": "VollCorner Biomarkt Schwanthalerhöhe",
        "street": "Schwanthalerstraße 111",
        "postal_code": "80339",
        "city": "München",
        "country_code": "DE",
        "phone": "Tel.: 089 30904740",
        "email": null,
        "website": "https://www.vollcorner.de/standorte/biomaerkte/",
        "opening_hours": {
          "text": "Montag bis Samstag 8 - 20 Uhr"
        },
        "services": null,
        "address": "Schwanthalerstraße 111, 80339 München"
      }
    },
    {
      "type": "Feature",
      "geometry": {
        "type": "Point",
        "coordinates": [
          11.549204,
          48.112326
        ]
      },
      "properties": {
        "id": "vollcorner_sendling",
        "chain_id": "vollcorner",
        "store_id": "sendling",
        "name": "VollCorner Biomarkt Sendling",
        "street": "Resi-Huber Platz 1",
        "postal_code": "81371",
        "city": "München",
        "country_code": "DE",
        "phone": "Tel.: 089 55285111",
        "email": null,
        "website": "https://www.vollcorner.de/standorte/biomaerkte/",
        "opening_hours": {
          "text": "Montag bis Samstag 8 - 20 Uhr"
        },
        "services": null,
        "address": "Resi-Huber Platz 1, 81371 München"
      }
    },
    {
      "type": "Feature",
      "geometry": {
        "type": "Point",
        "coordinates": [
          11.52899,
          48.081656
        ]
      },
      "properties": {
        "id": "vollcorner_solln",
        "chain_id": "vollcorner",
        "store_id": "solln",
        "name": "VollCorner Biomarkt Solln",
        "street": "Wolfratshauser Straße 204 ·",
        "postal_code": "81479",
        "city": "München",
        "country_code": "DE",
        "phone": "Tel.: 089 72481510",
        "email": null,
        "website": "https://www.vollcorner.de/standorte/biomaerkte/",
        "opening_hours": {
          "text": "Montag bis Samstag 8 - 20 Uhr"
        },
        "services": null,
        "address": "Wolfratshauser Straße 204 ·, 81479 München"
      }
    },
    {
      "type": "Feature",
      "geometry": {
        "type": "Point",
        "coordinates": [
          11.541907,
          48.134835
        ]
      },
      "properties": {
        "id": "vollcorner_westend",
        "chain_id": "vollcorner",
        "store_id": "westend",
        "name": "VollCorner Biomarkt Westend",
        "street": "Kazmairstraße 26",
        "postal_code": "80339",
        "city": "München",
        "country_code": "DE",
        "phone": "Tel.: 089 54030680",
        "email": null,
        "website": "https://www.vollcorner.de/standorte/biomaerkte/",
        "opening_hours": {
          "text": "Montag bis Samstag 8 - 20 Uhr"
        },
        "services": null,
        "address": "Kazmairstraße 26, 80339 München"
      }
    },
    {
      "type": "Feature",
      "geometry": {
        "type": "Point",
        "coordinates": [
          11.6614192,
          48.0761327
        ]
      },
      "properties": {
        "id": "vollcorner_neubiberg",
        "chain_id": "vollcorner",
        "store_id": "neubiberg",
        "name": "VollCorner Biomarkt Neubiberg",
        "street": "Hauptstraße 19",
        "postal_code": "85579",
        "city": "Neubiberg",
        "country_code": "DE",
        "phone": "Tel.: +49 89 95876551",
        "email": null,
        "website": "https://www.vollcorner.de/standorte/biomaerkte/",
        "opening_hours": {
          "text": "Montag bis Samstag 8 - 20 Uhr"
        },
        "services": null,
        "address": "Hauptstraße 19, 85579 Neubiberg"
      }
    }
  ]
}